[
{
  "pk": 1,
  "model": "events.functionalarea",
  "fields": {
    "color": "green-1",
    "name": "Accessibility",
    "slug": "accessibility"
  }
},
{
  "pk": 2,
  "model": "events.functionalarea",
  "fields": {
    "color": "orange-1",
    "name": "Community Building",
    "slug": "community"
  }
},
{
  "pk": 3,
  "model": "events.functionalarea",
  "fields": {
    "color": "red-1",
    "name": "Developer Engagement",
    "slug": "devrel"
  }
},
{
  "pk": 4,
  "model": "events.functionalarea",
  "fields": {
    "color": "gray-2",
    "name": "Development",
    "slug": "development"
  }
},
{
  "pk": 5,
  "model": "events.functionalarea",
  "fields": {
    "color": "pink-2",
    "name": "Engagement",
    "slug": "engagement"
  }
},
{
  "pk": 6,
  "model": "events.functionalarea",
  "fields": {
    "color": "blue-1",
    "name": "Firefox OS",
    "slug": "firefox-os"
  }
},
{
  "pk": 7,
  "model": "events.functionalarea",
  "fields": {
    "color": "gray-2",
    "name": "Hardware",
    "slug": "hardware"
  }
},
{
  "pk": 8,
  "model": "events.functionalarea",
  "fields": {
    "color": "red-1",
    "name": "L10n",
    "slug": "l10n"
  }
},
{
  "pk": 9,
  "model": "events.functionalarea",
  "fields": {
    "color": "purple-1",
    "name": "Mobile",
    "slug": "mobile"
  }
},
{
  "pk": 10,
  "model": "events.functionalarea",
  "fields": {
    "color": "gray-2",
    "name": "Other",
    "slug": "other"
  }
},
{
  "pk": 11,
  "model": "events.functionalarea",
  "fields": {
    "color": "orange-1",
    "name": "Quality Assurance",
    "slug": "quality-assurance"
  }
},
{
  "pk": 12,
  "model": "events.functionalarea",
  "fields": {
    "color": "green-2",
    "name": "Security",
    "slug": "security"
  }
},
{
  "pk": 13,
  "model": "events.functionalarea",
  "fields": {
    "color": "green-2",
    "name": "Services",
    "slug": "services"
  }
},
{
  "pk": 14,
  "model": "events.functionalarea",
  "fields": {
    "color": "red-1",
    "name": "WebMaker",
    "slug": "webmaker"
  }
},
{
  "pk": 1,
  "model": "events.space",
  "fields": {
    "city": "Mountain View",
    "name": "Mountain View",
    "timezone": "America/Los_Angeles",
    "country": "us",
    "address2": "",
    "lon": -122.0609917,
    "postal_code": "94041",
    "address": "331 E. Evelyn Avenue",
    "lat": 37.3874349,
    "slug": "mountain-view",
    "photo": "img/mtv.jpg"
  }
},
{
  "pk": 2,
  "model": "events.space",
  "fields": {
    "city": "London",
    "name": "London",
    "timezone": "Europe/London",
    "country": "gb",
    "address2": "",
    "lon": -0.127497,
    "postal_code": "WC2N 4AZ",
    "address": "101 St Martin's Lane, 3rd Floor",
    "lat": 51.51045,
    "slug": "london",
    "photo": "img/london.jpg"
  }
},
{
  "pk": 3,
  "model": "events.space",
  "fields": {
    "city": "Paris",
    "name": "Paris",
    "timezone": "Europe/Paris",
    "country": "fr",
    "address2": "",
    "lon": 2.3411542,
    "postal_code": "75009",
    "address": "16 Bis Boulevard Montmartre",
    "lat": 48.8721388,
    "slug": "paris",
    "photo": "img/Paris_4.jpg"
  }
},
{
  "pk": 4,
  "model": "events.space",
  "fields": {
    "city": "Auckland",
    "name": "Auckland",
    "timezone": "Pacific/Auckland",
    "country": "us",
    "address2": "",
    "lon": 174.777106,
    "postal_code": "1023",
    "address": "5 Short St",
    "lat": -36.866596,
    "slug": "auckland",
    "photo": "img/auckland.jpg"
  }
},
{
  "pk": 5,
  "model": "events.space",
  "fields": {
    "city": "Beijing",
    "name": "Beijing",
    "timezone": "Asia/Shanghai",
    "country": "cn",
    "address2": "",
    "lon": 116.43405,
    "postal_code": "100020",
    "address": "International Club Office Tower 800A",
    "lat": 39.909901,
    "slug": "beijing",
    "photo": "img/beijing.jpg"
  }
},
{
  "pk": 6,
  "model": "events.space",
  "fields": {
    "city": "Berlin",
    "name": "Berlin",
    "timezone": "Europe/Berlin",
    "country": "de",
    "address2": "Voltastr. 5",
    "lon": 13.418735,
    "postal_code": "13355",
    "address": "Haus 10, Treppe 6",
    "lat": 52.512408,
    "slug": "berlin",
    "photo": "img/berlin.jpg"
  }
},
{
  "pk": 7,
  "model": "events.space",
  "fields": {
    "city": "Portland",
    "name": "Portland",
    "timezone": "America/Los_Angeles",
    "country": "us",
    "address2": "1120 NW Couch St, Suite 320",
    "lon": -122.6827999,
    "postal_code": "97209",
    "address": "Brewery Block 2",
    "lat": 45.5236536,
    "slug": "portland",
    "photo": "img/mozpdx1.jpg"
  }
},
{
  "pk": 8,
  "model": "events.space",
  "fields": {
    "city": "San Francisco",
    "name": "San Francisco",
    "timezone": "America/Los_Angeles",
    "country": "us",
    "address2": "",
    "lon": -122.38889,
    "postal_code": "94105",
    "address": "2 Harrison Street",
    "lat": 37.78955,
    "slug": "san-francisco",
    "photo": "img/SF.jpg"
  }
},
{
  "pk": 9,
  "model": "events.space",
  "fields": {
    "city": "Taipei",
    "name": "Taipei",
    "timezone": "Asia/Taipei",
    "country": "tw",
    "address2": "",
    "lon": 121.56705,
    "postal_code": "11047",
    "address": "4F-A1, No. 106, Sec. 5, Xinyi Rd, Xinyi Dist.",
    "lat": 25.03265,
    "slug": "taipei",
    "photo": "img/taipei-03.jpg"
  }
},
{
  "pk": 10,
  "model": "events.space",
  "fields": {
    "city": "Tokyo",
    "name": "Tokyo",
    "timezone": "Asia/Tokyo",
    "country": "jp",
    "address2": "",
    "lon": 139.727765,
    "postal_code": "1060032",
    "address": "7-5-6 Roppongi, Minato-ku",
    "lat": 35.665208,
    "slug": "tokyo",
    "photo": "img/tokyo.jpg"
  }
},
{
  "pk": 11,
  "model": "events.space",
  "fields": {
    "city": "Toronto",
    "name": "Toronto",
    "timezone": "America/Toronto",
    "country": "ca",
    "address2": "",
    "lon": -79.3943,
    "postal_code": "M5V 1R9",
    "address": "366 Adelaide St W, Suite 500",
    "lat": 43.64715,
    "slug": "toronto",
    "photo": "img/toronto.jpg"
  }
},
{
  "pk": 12,
  "model": "events.space",
  "fields": {
    "city": "Vancouver",
    "name": "Vancouver",
    "timezone": "America/Vancouver",
    "country": "ca",
    "address2": "",
    "lon": -123.1091763,
    "postal_code": "V6B 1H5",
    "address": "163 W Hastings St, Suite 209",
    "lat": 49.2824945,
    "slug": "vancouver",
    "photo": "img/vancouver.jpg"
  }
}
]
